[
  {
    "district": "Tuen Mun",
    "name": "Tuen Mun Depot",
    "location": [22.396341, 113.97021]
  },
  {
    "district": "Wong Tai Sin",
    "name": "Wong Tai Sin Depot",
    "location": [22.34077, 114.1992]
  },
  {
    "district": "Yuen Long",
    "name": "Yuen Long Depot",
    "location": [22.45894, 114.003296]
  },
  {
    "district": "Eastern",
    "name": "Eastern Depot",
    "location": [22.270544, 114.23256]
  },
  {
    "district": "Kowloon City",
    "name": "Kowloon City Depot",
    "location": [22.316273, 114.18364]
  },
  {
    "district": "Kwun Tong",
    "name": "Kwun Tong Depot",
    "location": [22.315784, 114.228745]
  },
  {
    "district": "North",
    "name": "North Depot",
    "location": [22.49268, 114.13428]
  },
  {
    "district": "Islands",
    "name": "Islands Depot",
    "location": [22.259071, 113.9706]
  },
  {
    "district": "Sai Kung",
    "name": "Sai Kung Depot",
    "location": [22.31464, 114.25636]
  },
  {
    "district": "Southern",
    "name": "Southern Depot",
    "location": [22.244982, 114.15485]
  },
  {
    "district": "Tai Po",
    "name": "Tai Po Depot",
    "location": [22.451166, 114.17008]
  },
  {
    "district": "Sha Tin",
    "name": "Sha Tin Depot",
    "location": [22.387045, 114.19883]
  },
  {
    "district": "Kwai Tsing",
    "name": "Kwai Tsing Depot",
    "location": [22.360712, 114.12203]
  },
  {
    "district": "Tsuen Wan",
    "name": "Tsuen Wan Depot",
    "location": [22.37742, 114.129005]
  },
  {
    "district": "Sham Shui Po",
    "name": "Sham Shui Po Depot",
    "location": [22.334194, 114.16016]
  }
]
